{
  "generated_at": "2025-03-19T11:00:00Z",
  "is_demo": true,
  "detections": [
    {"lat": -3.7491,  "lon": -73.2538, "confidence": 0.91, "detected_at": "2025-01-10 08:22", "confirmed_at": "2025-03-19 08:22", "status": "active",      "source": "Ensemble (Sentinel-2 + Planet)", "district": "Maynas, Loreto"},
    {"lat": -5.1843,  "lon": -75.0152, "confidence": 0.84, "detected_at": "2025-01-12 08:45", "confirmed_at": "2025-03-15 08:45", "status": "active",      "source": "Planet Basemaps",               "district": "Requena, Loreto"},
    {"lat": -4.5621,  "lon": -74.1834, "confidence": 0.72, "detected_at": "2024-10-05 09:10", "confirmed_at": "2025-03-15 09:10", "status": "active",      "source": "Sentinel-2",                    "district": "Loreto, Loreto"},
    {"lat": -6.3217,  "lon": -76.5409, "confidence": 0.63, "detected_at": "2024-08-20 09:33", "confirmed_at": "2024-12-01 09:33", "status": "unconfirmed", "source": "Sentinel-2",                    "district": "Picota, San Martín"},
    {"lat": -7.1562,  "lon": -75.8823, "confidence": 0.55, "detected_at": "2024-07-15 09:55", "confirmed_at": "2024-11-20 09:55", "status": "unconfirmed", "source": "Planet Basemaps",               "district": "Coronel Portillo, Ucayali"},
    {"lat": -3.2984,  "lon": -72.6741, "confidence": 0.88, "detected_at": "2025-02-01 07:18", "confirmed_at": "2025-03-16 07:18", "status": "active",      "source": "Ensemble (Sentinel-2 + Planet)", "district": "Mariscal Ramón Castilla, Loreto"},
    {"lat": -8.8043,  "lon": -74.9215, "confidence": 0.77, "detected_at": "2025-01-28 08:02", "confirmed_at": "2025-03-16 08:02", "status": "active",      "source": "Sentinel-2",                    "district": "Atalaya, Ucayali"},
    {"lat": -13.5317, "lon": -72.8818, "confidence": 0.69, "detected_at": "2024-09-10 10:05", "confirmed_at": "2024-12-10 10:05", "status": "unconfirmed", "source": "Planet Basemaps",               "district": "La Convención, Cusco"},
    {"lat": -11.2451, "lon": -75.3394, "confidence": 0.82, "detected_at": "2025-01-05 10:30", "confirmed_at": "2025-03-17 10:30", "status": "active",      "source": "Ensemble (Sentinel-2 + Planet)", "district": "Oxapampa, Pasco"},
    {"lat": -14.0672, "lon": -73.4129, "confidence": 0.58, "detected_at": "2024-08-01 11:00", "confirmed_at": "2024-11-05 11:00", "status": "unconfirmed", "source": "Sentinel-2",                    "district": "Cotabambas, Apurímac"},
    {"lat": -12.5934, "lon": -70.0817, "confidence": 0.95, "detected_at": "2025-02-14 06:45", "confirmed_at": "2025-03-18 06:45", "status": "active",      "source": "Ensemble (Sentinel-2 + Planet)", "district": "Tambopata, Madre de Dios"},
    {"lat": -11.8763, "lon": -71.3452, "confidence": 0.87, "detected_at": "2025-01-20 07:20", "confirmed_at": "2025-03-18 07:20", "status": "active",      "source": "Planet Basemaps",               "district": "Manu, Madre de Dios"},
    {"lat": -13.1289, "lon": -69.6543, "confidence": 0.74, "detected_at": "2024-12-15 07:55", "confirmed_at": "2025-03-18 07:55", "status": "active",      "source": "Sentinel-2",                    "district": "Tahuamanu, Madre de Dios"},
    {"lat": -0.1834,  "lon": -75.8712, "confidence": 0.61, "detected_at": "2024-07-01 09:00", "confirmed_at": "2024-10-20 09:00", "status": "unconfirmed", "source": "Planet Basemaps",               "district": "Putumayo, Loreto"},
    {"lat": -1.5423,  "lon": -77.1234, "confidence": 0.79, "detected_at": "2025-01-30 09:40", "confirmed_at": "2025-03-19 09:40", "status": "active",      "source": "Ensemble (Sentinel-2 + Planet)", "district": "Putumayo, Loreto"}
  ]
}
